City_ID,City,Cloudiness,Country,Date,Humidity,Lat,Lng,Max Temp,Wind Speed
0,ostrovnoy,2,RU,1558378754,72,68.0603191,39.4740385,37.5,7.16
1,mahebourg,75,MU,1558378503,74,-20.4059505,57.7034222,78.8,11.41
2,qaanaaq,25,GL,1558378755,73,77.4670434,-69.2284827,22.2,2.37
3,zhuhai,0,CN,1558378755,39,22.270978,113.576677,44.6,4.47
4,cape town,20,ZA,1558378755,76,-33.9248685,18.4240553,55.99,8.05
5,atuona,78,PF,1558378755,76,-9.8028605,-139.0398069,81.96,16.49
6,flinders,0,AU,1558378755,62,-35.0244952,138.5713281,60.01,11.41
8,tiksi,95,RU,1558378756,88,71.637482,128.8644716,14.1,15.7
9,pushkinskiye gory,6,RU,1558378756,70,57.0224168,28.9128327,65.04,6.93
10,aykhal,90,RU,1558378756,48,65.941719,111.4881131,39.2,11.18
11,castro,0,CL,1558378756,70,-42.4801402,-73.7624137,48.2,9.17
12,avarua,100,CK,1558378756,94,-21.2065593,-159.7758407,71.6,2.24
13,saskylakh,0,RU,1558378757,91,71.954308,114.1198349,4.92,2.26
15,albany,40,US,1558378727,45,42.6525793,-73.7562317,82.4,12.75
16,vilyuysk,16,RU,1558378757,59,63.7464403,121.6276667,34.62,5.84
17,ushuaia,75,AR,1558378606,75,-54.8019121,-68.3029511,44.6,36.91
18,bambous virieux,75,MU,1558378758,74,-20.3438619,57.7636821,78.8,11.41
19,kodinsk,14,RU,1558378758,81,58.6076727,99.1779093,48.84,4.97
20,teknaf,1,BD,1558378758,85,21.0556654,92.2039933,84.66,8.23
21,busselton,84,AU,1558378758,63,-33.6531584,115.3454892,55,12.86
22,ambon,11,FR,1558378758,93,47.554993,-2.559785,64.99,5.82
23,maragogi,97,BR,1558378610,69,-9.0103626,-35.2208449,83.94,9.42
24,fallon,90,US,1558378758,53,39.4748693,-118.7770407,51.8,18.34
25,kantang,20,TH,1558378759,94,7.4062872,99.5172926,78.8,6.93
26,colonelganj,0,IN,1558378759,14,27.1301495,81.6995822,94.2,5.08
27,punta arenas,40,CL,1558378759,61,-53.1638329,-70.9170683,50,46.08
28,rikitea,95,PF,1558378669,76,-23.1223034,-134.9691543,74.58,12.82
29,new norfolk,40,AU,1558378759,66,-42.7828332,147.0593848,57.99,5.82
31,qingdao,0,CN,1558378760,54,36.067108,120.382609,59,2.24
32,port hardy,90,CA,1558378564,87,50.7123867,-127.460393,53.6,5.82
34,mamakan,26,RU,1558378760,90,57.8181289,114.0147135,31.38,2.82
35,bethel,20,US,1558378760,71,41.3712283,-73.4139621,51.8,4.68
36,clinton,75,US,1558378556,54,42.0719118,-84.0111239,55.4,10.29
37,varhaug,0,NO,1558378761,63,58.61471,5.6457295,64.99,8.05
39,mayor pablo lagerenza,43,PY,1558378761,33,-19.9210258,-60.7766392,91.86,14.9
40,hermanus,9,ZA,1558378761,74,-34.4092004,19.2504436,55,23.78
41,torbay,75,CA,1558378627,65,47.6580777,-52.7355238,48,24.16
42,yellowknife,75,CA,1558378762,26,62.4539717,-114.3717887,55.4,8.05
43,kruisfontein,92,ZA,1558378762,69,-33.9843356,24.732102,55.68,16.53
44,puerto ayora,26,EC,1558378762,86,-0.7432918,-90.3156893,79,5.99
45,rosita,72,NI,1558378762,71,13.9141369,-84.4015075,84.12,4.41
46,beloha,100,MG,1558378762,85,-25.1694494,45.0606557,70.08,10
47,port elizabeth,20,US,1558378762,46,39.3146827,-74.9749415,93,12.75
48,port alfred,67,ZA,1558378763,69,-33.5864065,26.8851448,61,8.01
49,garchitorena,59,PH,1558378763,75,13.8628124,123.6399562,84.3,6.11
50,kodiak,1,US,1558378763,63,57.79,-152.4072221,53.01,8.05
51,mar del plata,5,AR,1558378763,33,-38.0054771,-57.5426106,50.1,18.52
53,cabo san lucas,5,MX,1558378605,34,22.8905327,-109.9167371,91,11.41
54,tiarei,20,PF,1558378764,70,-17.5391608,-149.3714069,84.2,10.29
55,khatanga,10,RU,1558378764,92,71.964027,102.4406129,9.96,10.94
56,pisco,0,PE,1558378764,30,-13.7134562,-76.1841701,75.99,11.41
57,kolyvan,0,RU,1558378764,87,55.3051263,82.740727,48.2,4.47
58,hofn,90,IS,1558378764,81,64.2497026,-15.2020077,48.2,6.93
59,bontang,54,ID,1558378765,99,0.120863,117.4800445,74.22,2.62
60,sault sainte marie,1,CA,1558378765,61,46.5136494,-84.3357526,50,14.99
61,zhigansk,97,RU,1558378765,84,66.752064,123.3941119,27.24,8.77
62,thompson,75,CA,1558378765,35,38.23917,-122.28056,57.2,3.36
63,pevek,93,RU,1558378765,71,69.7029321,170.307033,26.16,4.65
64,nanortalik,29,GL,1558378766,72,60.1424955,-45.2394951,43.08,4.68
65,bilibino,93,RU,1558378766,89,68.0535995,166.448224,27.6,6.29
66,dikson,12,RU,1558378766,85,73.507735,80.5310301,20.22,12.15
67,hambantota,40,LK,1558378766,100,6.1428829,81.1212308,80.6,3.36
68,beja,20,PT,1558378766,49,38.0153039,-7.8627308,71.6,14.99
70,ponta do sol,0,BR,1558378767,57,32.6796393,-17.1030927,73.68,5.32
71,qasigiannguit,90,GL,1558378767,86,68.8219742,-51.1817888,33.8,4.7
72,butaritari,55,KI,1558378767,77,3.1166667,172.8,83.94,9.13
73,virginia beach,40,US,1558378597,48,36.8529263,-75.977985,91,10.29
74,hobyo,91,SO,1558378767,71,5.3515922,48.5249751,83.58,13.49
75,saint george,40,GR,1558378768,33,42.9568078,-85.6650289,75.2,11.41
76,pontes e lacerda,41,BR,1558378768,41,-15.2334749,-59.3285193,88.44,3.71
78,crotone,20,IT,1558378768,67,39.0807932,17.1271102,62.6,10.29
79,baglung,11,NP,1558378768,58,28.2774326,83.581615,54.24,2.66
80,raglan,99,NZ,1558378769,53,-37.8041003,174.8792929,48.99,1.99
81,jamestown,84,AU,1558378769,52,-33.205278,138.601944,54.78,5.86
83,araouane,77,ML,1558378769,18,18.904265,-3.5275161,100.14,15.1
84,emerald,0,AU,1558378770,82,-23.527291,148.164573,60.8,6.93
85,launceston,40,AU,1558378770,93,-41.4332215,147.1440875,55,14.99
86,nikolskoye,20,RU,1558378770,56,55.1981604,166.0015368,69.01,4.47
87,ambilobe,2,MG,1558378770,92,-13.2026069,49.0514094,74.76,4.52
88,cidreira,0,BR,1558378770,66,-30.1769388,-50.2089142,76.56,5.5
89,ternate,20,PH,1558378770,74,14.2714485,120.6775054,86,1.12
90,tarauaca,48,BR,1558378771,47,-8.1608977,-70.7652128,90.06,1.43
91,bella vista,62,AR,1558378771,80,36.481464,-94.2732642,75.66,7.29
92,xichang,19,CN,1558378771,91,27.894504,102.264449,49.74,2.46
93,antioch,40,US,1558378507,63,38.0049214,-121.805789,64.99,10.29
94,najran,75,SA,1558378772,77,17.5656036,44.2289441,69.8,11.41
95,agirish,100,RU,1558378772,88,61.9276281,63.016679,32.82,9.1
96,mataura,58,NZ,1558378772,88,-46.193922,168.8655083,48,1.99
97,katsuura,90,JP,1558378772,93,35.1522272,140.3208833,66.2,5.82
98,shalinskoye,66,RU,1558378772,63,55.7279446,93.768409,53.7,7.83
99,barrow,100,AR,1558378772,59,34.7209576,-92.3819068,59.64,13.38
100,sorong,95,ID,1558378773,93,-0.8761629,131.255828,77.28,2.01
101,kingston,75,CA,1558378724,63,44.2311717,-76.4859544,70,19.46
102,ketchikan,1,US,1558378684,76,55.3422222,-131.6461112,55.4,17.22
103,kapaa,20,US,1558378773,74,22.0881391,-159.3379818,80.6,10.29
104,mbigou,70,GA,1558378773,94,-1.9023377,11.9062829,72.6,1.63
105,yakeshi,100,CN,1558378774,48,49.285901,120.711735,46.86,20.31
106,hilo,40,US,1558378755,69,19.7241106,-155.0868193,79,4.7
107,whitehorse,40,CA,1558378774,36,60.7211871,-135.0568448,64,3.36
108,bonthe,63,SL,1558378774,70,7.5257028,-12.5039922,85.38,9.78
110,lompoc,75,US,1558378662,63,34.6391501,-120.4579409,66.99,12.75
111,port blair,99,IN,1558378774,71,11.6233774,92.7264828,85.2,7.18
112,bredasdorp,0,ZA,1558378775,62,-34.5385222,20.0568771,55,8.05
113,thinadhoo,100,MV,1558378775,76,0.531061,72.9977252,85.02,17
114,koumac,0,NC,1558378775,68,-20.549448,164.2707509,74.4,12.86
115,faanui,61,PF,1558378775,74,-16.4867378,-151.7429125,82.86,11.59
116,xam nua,100,LA,1558378775,98,20.3254175,104.1001326,67.38,2.17
117,east london,20,ZA,1558378775,72,-33.0291582,27.8545867,60.8,27.51
118,sao filipe,2,CV,1558378776,84,14.8951679,-24.4945636,72.96,16.91
119,deputatskiy,47,RU,1558378776,82,69.302603,139.9583829,8.52,3.31
120,chuy,96,UY,1558378776,91,-33.692754,-53.4552817,65.58,13.78
121,sitka,100,US,1558378776,98,57.0530556,-135.33,48.99,11.99
122,forio,75,IT,1558378777,77,40.7382914,13.8605512,62.6,6.93
123,russkaya polyana,100,RU,1558378777,80,53.778354,73.8754916,45.24,6.76
124,san felipe,37,CL,1558378777,95,-32.75,-70.7208115,51.01,1.01
125,arraial do cabo,0,BR,1558378491,78,-22.9673373,-42.0268099,84.2,4.7
126,margate,40,AU,1558378778,66,-27.243,153.1025,57.99,5.82
127,aklavik,75,CA,1558378563,50,68.219916,-135.0077881,55.4,3.09
128,lokosovo,100,RU,1558378778,68,61.131389,74.855278,44.52,9.17
129,paita,0,PE,1558378778,290,-5.0938488,-81.0962172,62.6,17.22
130,cravo norte,100,CO,1558378778,67,6.30435,-70.202659,85.02,3.09
131,motygino,85,RU,1558378778,84,58.1816803,94.7047756,49.2,5.23
132,west wendover,40,US,1558378779,66,40.739097,-114.073345,51.8,4.7
133,adrar,40,DZ,1558378779,17,28.0174403,-0.2642497,89.6,28.86
134,melfi,20,IT,1558378779,87,40.9933137,15.6531089,59,10.29
135,kibaya,75,RW,1558378779,88,-2.2804602,30.5466187,66.2,3.36
136,iqaluit,90,CA,1558378780,86,63.746693,-68.5169669,33.8,6.93
137,lavrentiya,31,RU,1558378780,95,65.583549,-171.0389249,28.32,6.4
138,morondava,0,MG,1558378780,69,-20.2904186,44.2999955,79.08,9.06
139,vaini,0,IN,1558378780,88,-21.1935,-175.1751534,78.9,1.59
140,georgetown,75,GY,1558378612,83,6.8012793,-58.1551255,82.4,11.41
141,sanchazi,0,CN,1558378781,82,42.073017,126.602655,64.4,2.24
142,sarai mir,0,IN,1558378781,35,26.0052917,82.9447782,86,3.36
143,yichun,89,CN,1558378781,98,27.815743,114.416785,41.64,3.58
144,plainview,40,US,1558378590,37,34.1847936,-101.7068417,84.99,18.34
145,comodoro rivadavia,0,AR,1558378608,37,-45.8656149,-67.4822429,55.4,16.11
146,nardaran,40,AZ,1558378782,52,40.5738701,49.9881435,66.2,19.46
147,nagua,75,DO,1558378782,70,19.3791006,-69.8537844,89.6,6.93
149,ganzhou,1,CN,1558378783,66,25.830694,114.933546,64.32,3.42
150,talnakh,75,RU,1558378783,92,69.5,88.4,15.8,29.08
151,coahuayana,1,MX,1558378783,22,18.7372222,-103.6688888,100.5,4.38
152,sinnamary,100,GF,1558378783,81,5.3746712,-52.9545991,82.5,10.96
153,porto novo,20,BR,1558378783,53,6.4968574,2.6288523,77,4.7
154,havoysund,20,NO,1558378784,80,70.9963394,24.6621398,39.2,24.16
155,bjornevatn,75,NO,1558378688,93,69.6674613,29.9871566,37.4,20.8
156,narsaq,20,GL,1558378784,28,60.9129622,-46.0504831,57.2,9.17
157,charlestown,1,US,1558378784,64,42.3782065,-71.0602131,87.01,12.75
158,trat,93,TH,1558378784,70,12.2427563,102.5174734,91,1.88
159,manado,40,ID,1558378784,100,1.4748305,124.8420794,73.4,4.97
160,trapani,20,IT,1558378785,72,38.0173505,12.5365171,66.2,17.22
161,sao joao da barra,40,BR,1558378785,55,-21.6368446,-41.0484428,86,3.36
162,saint-philippe,75,CA,1558378785,53,45.3569439,-73.4767279,75,29.97
163,haines junction,11,CA,1558378785,48,60.7544541,-137.5117819,51.18,7.23
164,kathmandu,75,NP,1558378762,73,27.7172453,85.3239605,71.6,6.67
165,norman wells,75,CA,1558378785,45,65.2814938,-126.8286524,66.2,6.93
166,brainerd,1,US,1558378527,40,46.3526733,-94.2020084,63,5.82
167,yumen,2,CN,1558378785,10,40.291843,97.045678,59.1,1.5
168,straumen,0,NO,1558378786,52,63.8708606,11.2998865,68,9.17
169,camacha,40,PT,1558378786,72,32.679852,-16.8502879,68,14.99
170,teya,75,MX,1558378786,39,21.0508574,-89.0738791,99,16.11
171,vitim,81,RU,1558378786,83,58.6939642,112.9647762,37.32,2.98
172,antsohihy,100,MG,1558378786,74,-14.8851268,47.9960743,80.7,5.35
173,kavieng,100,PG,1558378787,75,-2.5781167,150.8086082,82.86,3.76
174,la esperanza,75,HN,1558378787,62,14.299475,-88.1706047,87.8,4.7
175,clyde river,75,CA,1558378787,86,70.476365,-68.6012651,28.4,12.75
176,nador,0,MA,1558378499,40,35.1686165,-2.9275836,75.2,6.93
177,keflavik,75,IS,1558378788,100,63.9997549,-22.5582716,51.01,9.17
179,chokurdakh,0,RU,1558378788,89,70.622169,147.916168,7.08,5.99
180,le marin,75,MQ,1558378788,62,14.4887833,-60.8551207,87.8,19.46
181,tasiilaq,75,GL,1558378788,74,65.6134561,-37.6335696,35.6,12.75
182,udachnyy,90,RU,1558378789,48,66.407021,112.2977807,39.2,11.18
183,monrovia,40,LR,1558378789,79,6.3156068,-10.8073698,84.2,9.17
184,burnie,76,AU,1558378789,87,-41.0528583,145.9052168,53.01,5.99
185,kaitangata,16,NZ,1558378789,67,-46.2859133,169.846066,52,10
187,mackay,20,CA,1558378789,28,-21.1424956,149.1821469,59,20.8
188,lagoa,20,PT,1558378790,46,37.1356176,-8.4514359,73.4,18.34
189,bluff,1,AU,1558378790,89,-23.5823028,149.0794239,61.08,11.83
190,saint-georges,94,CA,1558378595,76,46.1229184,-70.670352,71.01,8.99
191,naryan-mar,0,RU,1558378791,90,67.6710067,53.1078339,27.24,8.19
192,port hedland,0,AU,1558378791,51,-20.3839142,118.6483796,62.6,6.93
193,hithadhoo,100,MV,1558378650,75,-0.6060574,73.0892245,84.12,11.3
194,beringovskiy,58,RU,1558378791,90,63.0611249,179.3485395,27.42,6.2
195,codrington,90,AU,1558378791,93,-38.2561037,141.9397094,60.8,5.82
196,ilulissat,90,GL,1558378791,86,69.2198118,-51.0986031,33.8,4.7
197,coquimbo,75,CL,1558378792,59,-29.9590009,-71.3389183,64.4,5.82
198,grand baie,75,MU,1558378661,74,-20.0089204,57.5816352,78.8,11.41
199,kaabong,100,UG,1558378792,92,3.5124436,34.1337219,64.86,2.91
200,lazaro cardenas,75,MX,1558378792,14,17.9567646,-102.1943485,88,21.92
201,luanda,20,AO,1558378792,78,-8.8146556,13.2301756,78.8,6.93
202,rio gallegos,0,AR,1558378754,40,-51.6230485,-69.2168291,53.6,34.45
203,namatanai,100,PG,1558378793,88,-3.6692081,152.4063941,77.46,5.95
204,severo-kurilsk,99,RU,1558378793,97,50.6683424,156.115192,39.66,15.1
208,san rafael del sur,40,NI,1558378793,49,11.8469126,-86.4364441,91.4,13.87
209,paamiut,7,GL,1558378794,91,61.9941151,-49.6665709,35.7,16.31
210,ribeira grande,40,PT,1558378794,88,37.8210369,-25.5148137,66.2,10.29
212,mount gambier,90,AU,1558378628,100,-37.8284212,140.7803529,53.6,8.05
213,pesca,96,CO,1558378794,68,32.791944,-96.829791,62.52,7.76
214,mount isa,0,AU,1558378794,56,-20.7255748,139.4927085,68,6.93
215,le port,25,FR,1558378795,64,-20.9443852,55.3032906,60.01,4.47
216,hobart,40,AU,1558378795,66,-42.8821377,147.3271949,57.99,5.82
217,dublin,75,IE,1558378538,81,53.3498053,-6.2603097,57.99,5.82
218,salalah,20,OM,1558378796,74,17.0193843,54.1107505,86,10.29
219,beisfjord,0,NO,1558378796,51,68.3761769,17.5960148,60.8,11.41
220,ust-tsilma,0,RU,1558378796,58,65.4338788,52.1540756,35.88,6.11
221,marawi,12,PH,1558378796,93,8.0106213,124.297718,77,5.01
222,samana,75,EC,1558378796,94,19.2030757,-69.3387664,77,4.7
223,koronowo,20,PL,1558378736,60,53.3155945,17.924967,71.01,3.36
224,ekimchan,100,RU,1558378797,87,53.0686485,132.939705,43.26,10.4
225,carnarvon,58,ZA,1558378797,65,-30.959965,22.1549442,50.1,14.94
226,saint-denis,0,FR,1558378797,67,48.936181,2.357443,64.4,10.29
227,tabas,100,IR,1558378798,18,33.6033455,56.9323531,89.6,9.17
228,san pedro,100,AR,1558378735,69,-33.6757835,-59.6628664,63,7
229,aketi,100,CD,1558378804,96,2.7388719,23.7811324,72.6,1.03
230,moses lake,1,US,1558378804,22,47.1301417,-119.2780771,69.8,13.87
231,mocuba,1,MZ,1558378804,90,-16.8402212,36.9648534,65.76,2.42
232,hamilton,90,CA,1558378635,67,43.2557206,-79.8711024,59,14.99
233,san juan del sur,40,NI,1558378808,74,11.263406,-85.8639766,84.2,10.2
234,katobu,17,ID,1558378814,93,-4.8303032,122.7124903,75.66,1.54
235,banjar,86,ID,1558378616,98,-7.3706874,108.5342487,73.86,1.14
236,provideniya,5,RU,1558378816,72,64.4031643,-173.2064559,33.72,5.23
237,andradas,20,BR,1558378535,56,-22.0738291,-46.5547852,79,6.93
238,bose,75,IT,1558378816,72,44.854376,-93.243344,64.4,2.24
239,manzhouli,35,CN,1558378819,45,49.597841,117.378529,45.24,13.67
240,lockhart,75,AU,1558378821,76,-35.2224975,146.717338,55.4,3.36
241,anadyr,75,RU,1558378821,74,64.7336613,177.4968265,30.2,6.71
242,bandarbeyla,67,SO,1558378822,74,9.49858,50.8105261,82.68,13.38
243,buchach,75,UA,1558378822,100,49.064831,25.3817159,70,2.24
244,pasni,0,PK,1558378823,52,25.2509599,63.4154233,86.82,9.17
245,tuktoyaktuk,40,CA,1558378823,75,69.445358,-133.034181,41,19.46
246,okha,100,RU,1558378823,96,53.5893264,142.9521874,40.38,13.62
247,puerto escondido,5,MX,1558378824,66,15.8719795,-97.0767365,86,9.17
248,ancud,0,CL,1558378825,70,-41.8675003,-73.8276965,48.2,9.17
250,port lincoln,100,AU,1558378826,76,-34.7239963,135.8611498,63.6,15.48
251,leningradskiy,0,RU,1558378827,80,55.7760848,37.655356,22.2,6.38
252,kajaani,0,FI,1558378827,62,64.2221775,27.7278497,59,6.93
253,murray bridge,100,AU,1558378827,89,-35.1311491,139.2650902,55.99,1.01
254,rocha,97,UY,1558378828,96,-34.4809769,-54.3307438,61.08,11.3
255,tagusao,92,PH,1558378828,71,9.19385,117.810799,84.12,2.57
256,cobija,75,BR,1558378828,55,-11.0343921,-68.7810767,89.6,3.36
257,port-gentil,20,GA,1558378833,88,-0.7351026,8.7591311,80.6,11.41
258,te anau,61,NZ,1558378834,93,-45.4144699,167.7180006,39.3,4.12
259,hami,0,CN,1558378834,11,42.81842,93.51515,69.72,6.2
260,pahrump,75,US,1558378834,41,36.2082943,-115.9839147,68,11.5
261,fort frances,1,CA,1558378834,38,48.6099494,-93.3955282,63,9.17
262,umtata,0,ZA,1558378835,51,-31.6066839,28.7780987,60.8,17.22
264,saint-leu,68,RE,1558378835,88,-21.1747552,55.2878651,78.01,3.36
265,jalu,73,LY,1558378836,5,29.040621,21.4991334,100.14,11.07
266,alice springs,1,AU,1558378836,93,-23.698042,133.8807471,57.2,3.36
268,dingle,4,PH,1558378836,80,11.0111309,122.650351,79.08,2.73
269,bodden town,75,KY,1558378836,88,19.2816905,-81.2573899,84.99,4.7
270,griffith,13,AU,1558378837,82,-34.2800883,146.0455313,55.4,5.82
271,coihaique,0,CL,1558378837,59,-45.5712254,-72.068265,46.4,4.7
272,sao felix do xingu,100,BR,1558378837,92,-7.0179497,-52.3613378,80.34,3.74
273,santa rosa,100,AR,1558378839,78,-36.620922,-64.2912369,49.38,13.94
274,goderich,96,CA,1558378839,87,43.7428345,-81.7138942,52,13
275,vila velha,75,BR,1558378839,83,-20.3477821,-40.2949528,80.6,9.17
276,rabo de peixe,40,PT,1558378839,88,37.8077543,-25.5829107,66.2,12.75
277,soyo,20,AO,1558378792,88,-6.1410265,12.3521148,80.6,9.17
278,cayenne,40,GF,1558378571,70,4.92242,-52.3134531,86,14.99
279,saldanha,86,PT,1558378840,46,36.0424492,-78.8983227,63.06,9.75
280,santa ines,75,EC,1558378840,72,0.2393585,-78.3132676,64.4,2.93
281,hasaki,75,JP,1558378841,93,35.7600822,140.8092263,66.2,16.11
282,slave lake,1,CA,1558378673,25,55.2723882,-114.7801407,62.6,17.22
283,christchurch,1,NZ,1558378744,100,-43.5319957,172.6396575,51.01,3.36
284,kibakwe,46,TZ,1558378841,74,-6.713745,36.366711,69.54,5.44
286,san andres,58,PH,1558378815,82,13.325187,122.650351,81.78,2.89
287,pangnirtung,75,CA,1558378841,80,66.1465578,-65.7012182,35.6,18.34
288,san quintin,95,PH,1558378841,76,15.9754023,120.8384093,78.72,3.62
289,union,90,US,1558378842,100,37.0937489,-95.7127622,57.2,8.05
290,dudinka,75,RU,1558378842,92,69.4065274,86.1763817,15.8,29.08
291,florida,40,CU,1558378581,52,29.1944672,-82.087657,87.8,5.82
292,madikeri,75,IN,1558378843,89,12.4244205,75.7381856,84.2,2.24
293,esperance,40,TT,1558378843,46,10.2465772,-61.4508435,91.4,18.34
294,takoradi,100,GH,1558378843,85,4.9015794,-1.7830973,78.9,3.56
295,lokomotivnyy,38,RU,1558378843,61,53.0463911,60.6109819,41.1,9.42
297,mogok,0,MM,1558378844,51,22.9246742,96.5063095,72.24,2.77
298,mikkeli,0,FI,1558378844,59,61.6887271,27.2721457,62.6,6.93
299,jiuquan,0,CN,1558378844,14,39.73287,98.494548,59.64,5.5
300,betafo,9,MG,1558378845,92,-19.8381858,46.8567756,58.2,3.47
301,aitape,100,PG,1558378845,87,-3.1538273,142.3639991,77.64,3.96
302,alofi,75,NU,1558378845,94,-19.0553711,-169.9178709,75.2,6.93
303,yulara,20,AU,1558378845,77,-25.2334936,130.9848698,62.6,8.16
304,kvarkeno,77,RU,1558378845,56,52.081198,59.7309019,44.88,8.21
305,salinopolis,90,BR,1558378846,82,-0.6237762,-47.3457584,82.14,12.57
306,chunhuhub,5,MX,1558378846,35,19.5850279,-88.5919294,96.72,7.02
307,dunedin,1,NZ,1558378846,81,-45.8667783,170.4910567,46.99,4
308,nioro,76,GM,1558378846,15,13.3532993,-15.74612,101.4,6.02
309,upernavik,0,GL,1558378846,85,72.7862882,-56.1375527,29.22,11.59
310,airai,35,TL,1558378846,73,7.3966118,134.5690225,75.12,7.2
311,balkanabat,99,TM,1558378846,41,39.5238734,54.3360001,79.8,6.69
312,syumsi,90,RU,1558378847,66,57.10251,51.6082227,43.08,6.91
313,loukhi,100,RU,1558378847,75,66.0750517,33.0481775,38.04,9.91
314,baruun-urt,0,MN,1558378847,48,46.6652838,113.2876804,44.88,5.32
315,miraflores,99,CO,1558378848,60,-12.1220585,-77.0267105,68.64,5.44
316,gunjur,0,GM,1558378848,61,13.1806725,-16.7559004,80.6,9.17
317,wajima,100,JP,1558378849,94,37.3904768,136.8992582,63.78,13.53
318,buala,87,SB,1558378849,79,-8.1662459,159.6189829,81.96,10.78
319,acari,100,BR,1558378849,48,-22.8255312,-43.34446,89.34,11.99
320,banfora,77,BF,1558378849,56,10.6400163,-4.7588042,91.14,4.7
321,mandera,69,ET,1558378731,47,3.9356389,41.8551162,87.18,8.03
322,tshikapa,99,CD,1558378849,58,-6.4237489,20.7956878,79.62,2.15
323,juneau,75,US,1558378850,71,58.3019444,-134.4197221,57.2,11.41
324,sidney,1,US,1558378850,26,40.2842164,-84.1554987,61,14.99
325,edd,50,ER,1558378850,49,42.003137,-80.312462,93.3,9.69
326,cockburn town,1,TC,1558378560,79,21.4674584,-71.1389101,80.52,12.5
328,vung tau,77,VN,1558378714,77,10.4113797,107.136224,85.2,10.58
329,mahon,75,IE,1558378851,71,51.8830519,-8.4069274,57,9.17
331,ishigaki,69,JP,1558378853,73,24.3406856,124.1555837,76.2,24.34
332,morant bay,20,JM,1558378853,62,17.8886522,-76.3897733,86,23.04
333,raduzhnyy,100,RU,1558378853,93,62.103942,77.4753989,39.3,9.86
334,san patricio,94,PY,1558378853,82,-26.9777363,-56.828301,76.74,7.49
335,hulan ergi,100,CN,1558378853,85,47.208843,123.6291891,48.48,15.26
336,thayetmyo,81,MM,1558378854,61,19.3228423,95.1797058,88.26,7.07
337,acapulco,5,MX,1558378854,70,16.8531086,-99.8236533,84.2,11.41
338,port shepstone,2,ZA,1558378854,47,-30.7276956,30.447285,69.54,5.32
339,tautira,20,PF,1558378854,70,-17.7496214,-149.1611957,84.2,10.29
340,la libertad,0,PE,1558378855,36,-8.1435933,-78.4751945,64.4,8.05
341,raymond,40,US,1558378580,48,42.3282995,-75.7760216,84.99,12.75
342,road town,40,VG,1558378828,66,18.4286115,-64.6184657,86,9.17
343,yar-sale,100,RU,1558378855,90,66.862587,70.854469,24.9,17.43
344,iwanai,100,JP,1558378855,87,42.9797665,140.5147367,56.04,11.32
345,eseka,100,CM,1558378855,91,3.6426789,10.7830826,76.92,3.13
346,chiredzi,0,ZW,1558378856,42,-21.0333486,31.6796392,65.76,0.78
347,tigil,33,RU,1558378856,92,57.779388,158.5752259,36.6,4.59
348,avera,40,US,1558378856,40,43.88615,-95.121547,91.4,9.17
349,muzhi,100,RU,1558378856,85,65.402601,64.7059967,30.3,11.63
351,chapais,90,CA,1558378856,93,49.78221,-74.85248,44.6,6.93
352,biak,81,ID,1558378857,98,-1.0381022,135.9800848,65.4,3.27
353,darhan,32,MN,1558378857,36,49.4648434,105.9745919,51.72,1.7
354,daru,78,SL,1558378857,89,43.2814622,-1.9533665,79.62,3.6
355,onokhoy,33,RU,1558378857,51,51.9227433,108.0503071,37.4,2.24
356,leh,33,IN,1558378857,51,34.1525864,77.5770535,25.8,3.58
357,banda aceh,100,ID,1558378858,76,5.5482904,95.3237559,84.12,11.95
358,alyangula,100,AU,1558378858,100,-13.8528647,136.4224871,71.6,3.36
359,sorland,0,NO,1558378858,71,67.6635735,12.6926738,53.6,5.82
360,fort nelson,20,CA,1558378858,42,58.8050174,-122.697236,68,5.82
361,boyolangu,80,ID,1558378858,89,-8.1195357,111.8942801,74.76,4.65
362,datong,0,CN,1558378858,23,40.076762,113.300129,55.32,9.44
363,vila franca do campo,40,PT,1558378859,88,37.7157269,-25.4345063,66.2,12.75
364,akureyri,90,IS,1558378859,66,65.6825509,-18.0906859,48.2,6.93
365,ulladulla,0,AU,1558378859,62,-35.3572426,150.4613249,60.01,11.41
366,ust-barguzin,27,RU,1558378859,60,53.4123591,109.0339077,36.06,2.42
367,pampierstad,0,ZA,1558378859,23,-27.7805348,24.6964808,67.02,10.38
368,zyryanovsk,100,KZ,1558378588,88,49.7260952,84.2733064,48.84,1.81
369,cooma,11,AU,1558378860,71,-36.2268655,149.1297882,53.6,10.29
370,sfantu gheorghe,40,RO,1558378860,93,45.8609375,25.7885796,66.2,10.29
371,carballo,0,ES,1558378860,44,43.2128129,-8.6915927,63,5.82
372,shimoda,75,JP,1558378860,100,34.6796171,138.9451459,68,11.41
373,novonukutskiy,96,RU,1558378861,40,53.70149,102.698419,56.04,4.81
374,reguengos de monsaraz,20,PT,1558378861,49,38.4252756,-7.53437,71.6,14.99
375,ocean city,40,US,1558378788,66,38.3365032,-75.0849058,93,13.87
376,qinhuangdao,0,CN,1558378861,40,39.935361,119.600523,57.48,8.41
377,muskegon,90,US,1558378605,70,43.2341813,-86.2483921,50,12.75
378,kargasok,82,RU,1558378862,79,59.0535405,80.8770602,43.08,8.63
379,auki,83,NG,1558378862,26,-8.7678593,160.6960306,98.88,6.08
380,kayseri,40,TR,1558378862,48,38.720489,35.482597,66.2,3.36
381,quanzhou,35,CN,1558378863,88,24.874132,118.675675,69.8,6.71
382,nago,40,IT,1558378863,93,45.8778243,10.8908516,60.01,3.36
383,medicine hat,75,CA,1558378863,32,50.0291676,-110.7034049,55.4,14.99
384,cherskiy,100,RU,1558378863,96,68.742677,161.3507839,24,7.16
385,santa maria,99,BR,1558378868,85,-29.687634,-53.8129003,71.16,5.95
386,north bend,40,US,1558378869,58,47.4956579,-121.7867775,63,12.75
387,el alto,75,BO,1558378857,19,-16.4899474,-68.2081896,57.2,14.99
388,geraldton,75,CA,1558378869,43,49.766667,-87.283333,55.4,11.41
389,souillac,1,FR,1558378869,59,44.893626,1.478613,62.6,11.41
390,la ronge,40,CA,1558378869,33,55.10823,-105.285989,62.6,10.29
391,namibe,0,AO,1558378870,74,-15.1978317,12.1575544,71.7,17.4
392,westport,20,IE,1558378845,66,53.8021307,-9.5143467,55.99,9.17
393,juiz de fora,20,BR,1558378833,44,-21.7623644,-43.3436917,75.2,8.05
394,lagos,20,NG,1558378870,83,6.5243793,3.3792057,82.4,3.36
395,half moon bay,90,US,1558378692,67,37.4635519,-122.4285862,62.01,9.17
396,nelson bay,2,AU,1558378870,93,-32.715,152.151111,59,3.36
397,tuatapere,71,NZ,1558378871,88,-46.1316001,167.6896954,48,1.99
398,grindavik,75,IS,1558378871,100,63.8441808,-22.4383818,51.01,9.17
399,xining,76,CN,1558378797,47,36.617134,101.778223,44.7,1.21
400,kieta,97,PG,1558378871,72,-6.2204747,155.6376301,82.5,4.09
401,kalabo,47,ZM,1558378871,42,-14.9931607,22.6779684,69.9,4.72
402,sambava,7,MG,1558378871,99,-14.2713338,50.1678121,70.98,1.5
403,wawa,90,NG,1558378872,38,49.433022,-90.5316859,94.92,4.88
404,manama,0,AE,1558378872,52,26.23531,50.573825,91.4,14.99
405,labuan,75,BN,1558378808,88,5.2831456,115.230825,80.6,5.21
406,wexford,75,US,1558378845,53,40.6266318,-80.0549768,75.99,19.46
407,kyren,100,RU,1558378872,57,51.6827294,102.1339851,38.04,5.79
408,boquira,20,BR,1558378872,40,-12.8209777,-42.7327424,88.62,5.1
409,bathsheba,20,BB,1558378792,58,13.2101681,-59.5253545,86,18.34
410,ogbomosho,97,NG,1558378873,61,8.1227496,4.2435893,84.66,8.72
411,longyearbyen,75,NO,1558378873,74,78.2231722,15.6267229,28.4,5.82
412,diu,0,IN,1558378873,75,20.7144094,70.9873719,83.04,12.82
413,shebalino,100,RU,1558378873,68,51.290778,85.6677519,53.52,7.29
414,kalat,47,PK,1558378846,44,29.0523112,66.5878767,66.84,4
415,hare bay,75,CA,1558378874,64,48.8541751,-54.01191,46,17.22
416,kirkuk,0,IQ,1558378874,16,35.4666329,44.3798895,86.82,7.36
417,tabou,84,CI,1558378874,82,4.4279197,-7.3570576,80.88,4.9
418,ahipara,99,NZ,1558378875,100,-35.1713483,173.1533404,55,9.51
419,byron bay,40,AU,1558378875,93,-28.6473671,153.601977,63,4.7
420,isangel,13,VU,1558378875,76,-19.54172,169.2803499,74.76,20.18
422,susuman,0,RU,1558378875,75,62.7804506,148.1536412,22.38,3.15
423,plattling,100,DE,1558378876,86,48.7806071,12.8690362,55.99,3.71
424,arenapolis,27,BR,1558378876,34,-14.4475842,-56.844221,89.52,3.94
425,tocopilla,79,CL,1558378876,94,-22.0886778,-70.1960541,61.8,17.07
426,arroyo,75,US,1558378876,49,35.1185868,-120.5907252,75,21.92
427,hastings,0,NZ,1558378877,93,-39.6417701,176.8412856,42.18,2.64
428,okhotsk,87,RU,1558378877,77,59.35846,143.2034909,41.46,6.53
429,maniitsoq,1,GL,1558378877,76,65.4076761,-52.9005718,40.02,8.08
430,meulaboh,100,ID,1558378877,81,4.1436951,96.1281146,81.6,5.88
431,cartagena del chaira,98,CO,1558378878,89,1.3338448,-74.8434026,79.62,3.22
432,macau,70,BR,1558378878,65,22.198745,113.543873,86.1,13.85
433,svodin,0,SK,1558378878,72,47.911051,18.4992171,63,6.93
434,victoria,75,BN,1558378812,88,48.4284207,-123.3656444,80.6,5.21
435,dong xoai,100,VN,1558378870,71,11.534407,106.8904917,83.76,5.44
436,zaysan,43,KZ,1558378879,47,47.4701444,84.8752996,59.46,10.83
437,sioux lookout,40,CA,1558378879,44,50.0978321,-91.922038,59,6.93
438,waipawa,0,NZ,1558378879,93,-39.9415891,176.5896354,33.01,2.64
439,vila do maio,20,CV,1558378879,54,15.1385669,-23.2066909,80.6,13.87
441,russkiy aktash,20,RU,1558378880,80,55.0389485,52.1156751,41,11.18
442,kokstad,51,ZA,1558378831,33,-30.5096279,29.4063234,57.12,3.65
443,lucapa,65,AO,1558378880,48,-8.4432485,20.7301263,78.36,2.73
444,birjand,0,IR,1558378880,26,32.8649039,59.2262472,71.6,9.17
445,ingham,24,AU,1558378880,97,-18.6494046,146.1624851,64.32,3.29
447,tilichiki,99,RU,1558378881,87,60.433333,166.0486109,33.9,4.41
448,doha,15,QA,1558378609,78,25.2854473,51.5310398,84.2,2.24
449,makakilo city,75,US,1558378845,69,21.3469444,-158.0858333,82.99,11.41
450,lorengau,100,PG,1558378869,89,-2.0298424,147.2743657,77.46,1.12
451,anan,90,JP,1558378881,93,33.9217662,134.659438,66.2,5.82
452,synya,29,RU,1558378882,68,65.15,57.216667,32.28,8.55
453,thanatpin,75,MM,1558378882,83,17.292049,96.5756695,82.4,4.7
454,altagracia de orituco,96,VE,1558378882,33,9.8563254,-66.3735841,89.52,5.26
455,anqing,55,CN,1558378882,34,30.531919,117.115101,64.68,4.05
456,nome,40,US,1558378882,62,64.5011111,-165.4063889,87.8,12.75
457,lahaina,20,US,1558378883,61,20.8783333,-156.6825,82.4,11.41
458,hereford,40,GB,1558378883,59,52.056398,-2.715974,64,3.36
459,san ramon de la nueva oran,100,AR,1558378883,97,-23.128383,-64.3216987,63.42,2.13
460,manuk mangkaw,99,PH,1558378883,68,4.8052262,119.8410174,86.1,5.57
461,prainha,100,BR,1558378652,69,-23.8659982,-46.1353584,86.1,4.14
462,pacific grove,90,US,1558378883,77,36.6177374,-121.9166215,64,4.7
463,tam ky,20,VN,1558378884,78,15.5638292,108.4821677,82.4,4.7
464,atasu,100,KZ,1558378884,52,43.2685341,76.9488633,55.32,12.21
465,seshcha,1,RU,1558378884,72,53.7322394,33.3332803,61.62,6.11
466,norilsk,75,RU,1558378884,92,69.35579,88.1892939,15.8,29.08
467,los teques,40,VE,1558378674,66,10.349223,-67.0345443,87.01,3.36
468,san cristobal,75,EC,1558378885,37,-0.8674715,-89.436391,71.6,4.7
469,san ramon,75,NI,1558378828,65,37.7643595,-121.9539616,77,5.55
470,horta,40,ES,1558378885,72,38.5348447,-28.6299812,64.99,6.93
471,poum,75,MK,1558378885,71,41.281159,20.711874,53.6,5.82
472,sawtell,90,AU,1558378885,93,-30.3720946,153.0942431,57.2,3.36
473,seoul,1,KR,1558378758,93,37.566535,126.9779692,55.4,4.7
474,plettenberg bay,98,ZA,1558378886,74,-34.0574892,23.3644925,55.32,7.18
475,oranjestad,20,AW,1558378652,62,12.5092044,-70.0086306,87.8,25.28
476,belmonte,60,PT,1558378886,58,40.351063,-7.3408535,63,7
477,bundaberg,0,AU,1558378886,93,-24.8669736,152.3509714,61,6.93
478,samarinda,52,ID,1558378886,98,-0.5016166,117.1264753,75.3,2.08
479,zhezkazgan,87,KZ,1558378887,45,47.7963656,67.7020019,56.04,13.85
480,abonnema,75,NG,1558378887,83,4.7231169,6.7788461,80.6,11.41
481,narok,35,KE,1558378887,91,-1.0875428,35.8770642,56.76,6.64
482,muravlenko,28,RU,1558378887,89,63.793478,74.525728,34.98,7.83
483,necochea,100,AR,1558378887,47,-38.5544968,-58.7396088,59,5.99
484,talcahuano,40,CL,1558378827,66,-36.7247834,-73.1169808,55.4,6.93
485,san-pedro,92,CI,1558378888,89,4.7578686,-6.642433,78.9,3.56
486,bismarck,1,US,1558378843,50,46.8083268,-100.7837392,60.8,16.11
487,pinotepa de don luis,21,MX,1558378888,37,16.4272127,-97.9779667,95.1,7.47
488,mizan teferi,59,ET,1558378888,80,6.9936468,35.5821994,63.42,3.06
489,bonfim,20,BR,1558378888,39,3.3612854,-59.8338004,82.4,8.05
491,bouca,68,CF,1558378889,51,6.5060695,18.2763069,83.94,4.12
492,bolobo,95,CD,1558378889,57,-2.1587078,16.2345633,83.94,2.33
493,nuuk,20,GL,1558378889,70,64.1814099,-51.6941381,42.8,8.05
494,baylo,1,PH,1558378889,69,31.5488923,-97.1130573,77,1.07
495,fuxin,4,CN,1558378889,40,42.021602,121.670273,56.94,11.95
496,chernaya kholunitsa,90,RU,1558378890,52,58.851291,51.7186791,42.9,5.82
497,havelock,1,US,1558378595,51,34.8790492,-76.9013301,88,12.75
498,traverse city,75,US,1558378672,62,44.7630567,-85.6206317,54,14.99
499,champoton,20,MX,1558378890,39,19.3471645,-90.7200237,95,11.41
500,mandalgovi,0,MN,1558378890,36,45.7631589,106.2650297,48.66,1.34
501,delemont,75,CH,1558378890,93,47.365837,7.3451555,57.2,11.41
502,chauk,67,MM,1558378891,41,20.9006356,94.8261424,91.5,5.55
503,kambove,15,CD,1558378891,91,-10.8778699,26.5963713,62.52,3.36
504,tutoia,75,BR,1558378891,79,-2.9699801,-42.3935301,86,6.93
505,touros,52,BR,1558378891,75,-5.1961669,-35.4635381,84.12,15.88
506,babati,59,TZ,1558378891,97,-4.2078266,35.7461477,55.5,6.11
507,graaff-reinet,19,ZA,1558378808,53,-32.2547052,24.5480227,60,13.87
508,noumea,0,NC,1558378811,77,-22.2734912,166.4480887,64.4,2.24
509,pilot butte,40,CA,1558378892,33,50.4801035,-104.4186625,59,10.29
510,atar,1,MR,1558378892,12,20.5072923,-13.052978,95,9.17
511,valenca do piaui,58,BR,1558378892,67,-6.4051171,-41.7381713,84.66,5.37
512,natchez,1,US,1558378892,74,31.5604442,-91.403171,87.01,6.93
513,denpasar,20,ID,1558378866,94,-8.6704582,115.2126293,80.6,8.05
514,loikaw,100,MM,1558378892,85,19.6740066,97.2113605,69.18,3.4
515,madaoua,71,NE,1558378892,18,14.0790439,5.956825,104.1,3.36
516,malindi,75,KE,1558378808,88,-3.2191864,40.1168906,77,9.17
518,bonito,0,BR,1558378893,49,-21.1265516,-56.4841032,84.3,7.72
519,saint anthony,90,US,1558378893,81,45.0205565,-93.2179335,45,3.36
520,high prairie,0,CA,1558378893,34,55.4328991,-116.4886918,61.8,16.46
521,high rock,75,BS,1558378893,83,26.6239333,-78.2832069,75.2,12.75
522,raudeberg,20,NO,1558378894,76,61.9829131,5.1351059,69.8,4.7
523,kununurra,75,AU,1558378894,58,-15.6049485,128.7654685,82.4,6.93
524,mogadishu,79,SO,1558378801,79,2.0469343,45.3181623,80.88,9.78
525,mecca,1,SA,1558378872,48,21.3890824,39.8579118,88.62,1.74
526,viedma,14,AR,1558378894,41,-40.8119087,-62.9962044,58.56,10.98
527,tomatlan,0,MX,1558378894,59,19.9344504,-105.2516629,84.66,7.9
528,lyuban,39,BY,1558378625,68,52.7917612,27.9992898,67.92,12.15
529,bonavista,59,CA,1558378895,74,48.6533449,-53.1118249,44.01,15.99
530,hirara,37,JP,1558378895,67,24.8218333,125.3137005,75.48,26.15
531,russell,75,AR,1558378895,71,35.3625835,-91.5076324,50,12.75
532,burns lake,66,CA,1558378895,62,54.2334148,-125.763613,56.4,5.21
533,hakkari,0,FI,1558378896,46,37.577427,43.736782,69.8,5.82
535,villaviciosa,20,ES,1558378896,71,43.4817214,-5.4355748,59,6.93
536,padang,100,ID,1558378896,82,-0.9470832,100.417181,81.24,7.65
537,matam,1,SN,1558378897,14,15.6600225,-13.2576906,102.12,11.61
538,la seyne-sur-mer,0,FR,1558378897,72,43.102976,5.878219,69.01,2.24
539,palu,72,ID,1558378897,80,-0.8679099,119.9046594,78.72,3.83
540,talmenka,40,RU,1558378897,76,53.8165021,83.557285,51.8,11.18
541,tamworth,64,AU,1558378897,87,-31.092748,150.9320334,44.6,5.82
542,perth,20,GB,1558378872,82,56.394994,-3.4308381,59,3.36
543,yabrud,0,SY,1558378840,32,33.9717649,36.6579649,80.6,8.05
545,veraval,0,FR,1558378898,62,20.9158979,70.3628516,61,8.05
546,novyy urgal,100,RU,1558378899,93,51.0721621,132.6006211,49.74,2.68
547,tongren,4,CN,1558378899,64,27.731514,109.189598,55.86,2.84
